{
"type": "FeatureCollection",
"name": "stations",
"crs": { "type": "name", "properties": { "name": "urn:ogc:def:crs:OGC:1.3:CRS84" } },
"features": [
{ "type": "Feature", "properties": { "stop_id": 199911, "stop_code": 991, "stop_name": "Osgoode Station", "stop_desc": null, "stop_lat": null, "stop_lon": null, "zone_id": null, "stop_url": null, "location_type": null, "parent_station": null, "stop_timezone": null, "wheelchair_boarding": null }, "geometry": { "type": "Point", "coordinates": [ -79.386543519872205, 43.650798918272123 ] } },
{ "type": "Feature", "properties": { "stop_id": null, "stop_code": null, "stop_name": null, "stop_desc": null, "stop_lat": null, "stop_lon": null, "zone_id": null, "stop_url": null, "location_type": null, "parent_station": null, "stop_timezone": null, "wheelchair_boarding": null }, "geometry": null },
{ "type": "Feature", "properties": { "stop_id": 1381, "stop_code": 4733, "stop_name": "St. Clair Station", "stop_desc": null, "stop_lat": 43.687897, "stop_lon": -79.393924, "zone_id": null, "stop_url": null, "location_type": null, "parent_station": null, "stop_timezone": null, "wheelchair_boarding": 1 }, "geometry": { "type": "Point", "coordinates": [ -79.393691028216608, 43.687949164096139 ] } },
{ "type": "Feature", "properties": { "stop_id": 1425, "stop_code": 7152, "stop_name": "Bayview Station", "stop_desc": null, "stop_lat": 43.766665, "stop_lon": -79.387427, "zone_id": null, "stop_url": null, "location_type": null, "parent_station": null, "stop_timezone": null, "wheelchair_boarding": 1 }, "geometry": { "type": "Point", "coordinates": [ -79.387427, 43.766665 ] } },
{ "type": "Feature", "properties": { "stop_id": 1433, "stop_code": 1028, "stop_name": "Dupont St at Spadina Rd West Side - Dupont Station", "stop_desc": null, "stop_lat": 43.674888, "stop_lon": -79.407407, "zone_id": null, "stop_url": null, "location_type": null, "parent_station": null, "stop_timezone": null, "wheelchair_boarding": 1 }, "geometry": { "type": "Point", "coordinates": [ -79.407407, 43.674888 ] } },
{ "type": "Feature", "properties": { "stop_id": 91919233, "stop_code": 921921, "stop_name": "St Andrew Station", "stop_desc": null, "stop_lat": null, "stop_lon": null, "zone_id": null, "stop_url": null, "location_type": null, "parent_station": null, "stop_timezone": null, "wheelchair_boarding": null }, "geometry": { "type": "Point", "coordinates": [ -79.384820077334581, 43.647796709843725 ] } },
{ "type": "Feature", "properties": { "stop_id": 2351, "stop_code": 3665, "stop_name": "Glencairn Station", "stop_desc": null, "stop_lat": 43.709467, "stop_lon": -79.441148, "zone_id": null, "stop_url": null, "location_type": null, "parent_station": null, "stop_timezone": null, "wheelchair_boarding": 1 }, "geometry": { "type": "Point", "coordinates": [ -79.441148, 43.709467 ] } },
{ "type": "Feature", "properties": { "stop_id": 3165, "stop_code": 3221, "stop_name": "Dundas Station", "stop_desc": null, "stop_lat": 43.656196, "stop_lon": -79.380763, "zone_id": null, "stop_url": null, "location_type": null, "parent_station": null, "stop_timezone": null, "wheelchair_boarding": 1 }, "geometry": { "type": "Point", "coordinates": [ -79.381024940691063, 43.656535685166759 ] } },
{ "type": "Feature", "properties": { "stop_id": 5635, "stop_code": 9618, "stop_name": "Midland Ave at Midland Station", "stop_desc": null, "stop_lat": 43.770503, "stop_lon": -79.271864, "zone_id": null, "stop_url": null, "location_type": null, "parent_station": null, "stop_timezone": null, "wheelchair_boarding": 1 }, "geometry": { "type": "Point", "coordinates": [ -79.271864, 43.770503 ] } },
{ "type": "Feature", "properties": { "stop_id": 5675, "stop_code": 776, "stop_name": "Christie Station", "stop_desc": null, "stop_lat": 43.664124, "stop_lon": -79.418567, "zone_id": null, "stop_url": null, "location_type": null, "parent_station": null, "stop_timezone": null, "wheelchair_boarding": 1 }, "geometry": { "type": "Point", "coordinates": [ -79.418567, 43.664124 ] } },
{ "type": "Feature", "properties": { "stop_id": 5845, "stop_code": 1234, "stop_name": "Lawrence Ave at Yonge St - Lawrence Station", "stop_desc": null, "stop_lat": 43.725251, "stop_lon": -79.401896, "zone_id": null, "stop_url": null, "location_type": null, "parent_station": null, "stop_timezone": null, "wheelchair_boarding": 1 }, "geometry": { "type": "Point", "coordinates": [ -79.401896, 43.725251 ] } },
{ "type": "Feature", "properties": { "stop_id": 6980, "stop_code": 9019, "stop_name": "Yonge St at Lawrence Ave East North Side - Lawrence Station", "stop_desc": null, "stop_lat": 43.725377, "stop_lon": -79.402115, "zone_id": null, "stop_url": null, "location_type": null, "parent_station": null, "stop_timezone": null, "wheelchair_boarding": 1 }, "geometry": { "type": "Point", "coordinates": [ -79.402115, 43.725377 ] } },
{ "type": "Feature", "properties": { "stop_id": 7143, "stop_code": 3213, "stop_name": "Bloor-Yonge Station", "stop_desc": null, "stop_lat": 43.670773, "stop_lon": -79.38689, "zone_id": null, "stop_url": null, "location_type": null, "parent_station": null, "stop_timezone": null, "wheelchair_boarding": 1 }, "geometry": { "type": "Point", "coordinates": [ -79.38689, 43.670773 ] } },
{ "type": "Feature", "properties": { "stop_id": 8441, "stop_code": 9016, "stop_name": "King Station", "stop_desc": null, "stop_lat": 43.649249, "stop_lon": -79.378022, "zone_id": null, "stop_url": null, "location_type": null, "parent_station": null, "stop_timezone": null, "wheelchair_boarding": 1 }, "geometry": { "type": "Point", "coordinates": [ -79.378022, 43.649249 ] } },
{ "type": "Feature", "properties": { "stop_id": 8510, "stop_code": 3238, "stop_name": "Queen Station", "stop_desc": null, "stop_lat": 43.652319, "stop_lon": -79.379085, "zone_id": null, "stop_url": null, "location_type": null, "parent_station": null, "stop_timezone": null, "wheelchair_boarding": 1 }, "geometry": { "type": "Point", "coordinates": [ -79.379085, 43.652319 ] } },
{ "type": "Feature", "properties": { "stop_id": 9227, "stop_code": 10935, "stop_name": "Union Station", "stop_desc": null, "stop_lat": 43.645652, "stop_lon": -79.37921, "zone_id": null, "stop_url": null, "location_type": null, "parent_station": null, "stop_timezone": null, "wheelchair_boarding": 1 }, "geometry": { "type": "Point", "coordinates": [ -79.37921, 43.645652 ] } },
{ "type": "Feature", "properties": { "stop_id": 9506, "stop_code": 5692, "stop_name": "Midland Ave at Midland Station", "stop_desc": null, "stop_lat": 43.770434, "stop_lon": -79.272115, "zone_id": null, "stop_url": null, "location_type": null, "parent_station": null, "stop_timezone": null, "wheelchair_boarding": 1 }, "geometry": { "type": "Point", "coordinates": [ -79.272115, 43.770434 ] } },
{ "type": "Feature", "properties": { "stop_id": 9839, "stop_code": 9020, "stop_name": "Yonge St at Lawrence Ave West - Lawrence Station", "stop_desc": null, "stop_lat": 43.725286, "stop_lon": -79.402385, "zone_id": null, "stop_url": null, "location_type": null, "parent_station": null, "stop_timezone": null, "wheelchair_boarding": 1 }, "geometry": { "type": "Point", "coordinates": [ -79.402385, 43.725286 ] } },
{ "type": "Feature", "properties": { "stop_id": 14161, "stop_code": 14639, "stop_name": "Broadview Station", "stop_desc": null, "stop_lat": 43.677013, "stop_lon": -79.358147, "zone_id": null, "stop_url": null, "location_type": null, "parent_station": null, "stop_timezone": null, "wheelchair_boarding": 1 }, "geometry": { "type": "Point", "coordinates": [ -79.358147, 43.677013 ] } },
{ "type": "Feature", "properties": { "stop_id": 14163, "stop_code": 14641, "stop_name": "Castle Frank Station", "stop_desc": null, "stop_lat": 43.673452, "stop_lon": -79.369136, "zone_id": null, "stop_url": null, "location_type": null, "parent_station": null, "stop_timezone": null, "wheelchair_boarding": 1 }, "geometry": { "type": "Point", "coordinates": [ -79.369136, 43.673452 ] } },
{ "type": "Feature", "properties": { "stop_id": 14166, "stop_code": 14644, "stop_name": "Coxwell Station", "stop_desc": null, "stop_lat": 43.684135, "stop_lon": -79.323123, "zone_id": null, "stop_url": null, "location_type": null, "parent_station": null, "stop_timezone": null, "wheelchair_boarding": 1 }, "geometry": { "type": "Point", "coordinates": [ -79.323123, 43.684135 ] } },
{ "type": "Feature", "properties": { "stop_id": 14169, "stop_code": 14647, "stop_name": "Davisville Station", "stop_desc": null, "stop_lat": 43.697786, "stop_lon": -79.396955, "zone_id": null, "stop_url": null, "location_type": null, "parent_station": null, "stop_timezone": null, "wheelchair_boarding": 1 }, "geometry": { "type": "Point", "coordinates": [ -79.396955, 43.697786 ] } },
{ "type": "Feature", "properties": { "stop_id": 14172, "stop_code": 14650, "stop_name": "Donlands Station", "stop_desc": null, "stop_lat": 43.681048, "stop_lon": -79.337925, "zone_id": null, "stop_url": null, "location_type": null, "parent_station": null, "stop_timezone": null, "wheelchair_boarding": 1 }, "geometry": { "type": "Point", "coordinates": [ -79.337925, 43.681048 ] } },
{ "type": "Feature", "properties": { "stop_id": 14184, "stop_code": 14663, "stop_name": "Dundas West Station", "stop_desc": null, "stop_lat": 43.656975, "stop_lon": -79.453099, "zone_id": null, "stop_url": null, "location_type": null, "parent_station": null, "stop_timezone": null, "wheelchair_boarding": 1 }, "geometry": { "type": "Point", "coordinates": [ -79.453099, 43.656975 ] } },
{ "type": "Feature", "properties": { "stop_id": 14215, "stop_code": 14695, "stop_name": "High Park Station", "stop_desc": null, "stop_lat": 43.65397, "stop_lon": -79.466354, "zone_id": null, "stop_url": null, "location_type": null, "parent_station": null, "stop_timezone": null, "wheelchair_boarding": 1 }, "geometry": { "type": "Point", "coordinates": [ -79.466354, 43.65397 ] } },
{ "type": "Feature", "properties": { "stop_id": 14221, "stop_code": 14701, "stop_name": "Jane Station", "stop_desc": null, "stop_lat": 43.649968, "stop_lon": -79.483848, "zone_id": null, "stop_url": null, "location_type": null, "parent_station": null, "stop_timezone": null, "wheelchair_boarding": 1 }, "geometry": { "type": "Point", "coordinates": [ -79.483848, 43.649968 ] } },
{ "type": "Feature", "properties": { "stop_id": 14225, "stop_code": 14705, "stop_name": "Keele Station", "stop_desc": null, "stop_lat": 43.655427, "stop_lon": -79.459586, "zone_id": null, "stop_url": null, "location_type": null, "parent_station": null, "stop_timezone": null, "wheelchair_boarding": 1 }, "geometry": { "type": "Point", "coordinates": [ -79.459586, 43.655427 ] } },
{ "type": "Feature", "properties": { "stop_id": 14239, "stop_code": 14720, "stop_name": "Kipling Station", "stop_desc": null, "stop_lat": 43.637717, "stop_lon": -79.535511, "zone_id": null, "stop_url": null, "location_type": null, "parent_station": null, "stop_timezone": null, "wheelchair_boarding": 1 }, "geometry": { "type": "Point", "coordinates": [ -79.535511, 43.637717 ] } },
{ "type": "Feature", "properties": { "stop_id": 14252, "stop_code": 14733, "stop_name": "Lawrence West Station", "stop_desc": null, "stop_lat": 43.715586, "stop_lon": -79.444126, "zone_id": null, "stop_url": null, "location_type": null, "parent_station": null, "stop_timezone": null, "wheelchair_boarding": 1 }, "geometry": { "type": "Point", "coordinates": [ -79.444126, 43.715586 ] } },
{ "type": "Feature", "properties": { "stop_id": 14256, "stop_code": 14737, "stop_name": "Main Street Station", "stop_desc": null, "stop_lat": 43.689096, "stop_lon": -79.301708, "zone_id": null, "stop_url": null, "location_type": null, "parent_station": null, "stop_timezone": null, "wheelchair_boarding": 1 }, "geometry": { "type": "Point", "coordinates": [ -79.301708, 43.689096 ] } },
{ "type": "Feature", "properties": { "stop_id": 14265, "stop_code": 14746, "stop_name": "Ossington Station", "stop_desc": null, "stop_lat": 43.662437, "stop_lon": -79.426176, "zone_id": null, "stop_url": null, "location_type": null, "parent_station": null, "stop_timezone": null, "wheelchair_boarding": 1 }, "geometry": { "type": "Point", "coordinates": [ -79.426176, 43.662437 ] } },
{ "type": "Feature", "properties": { "stop_id": 14266, "stop_code": 14747, "stop_name": "Pape Station", "stop_desc": null, "stop_lat": 43.680042, "stop_lon": -79.344585, "zone_id": null, "stop_url": null, "location_type": null, "parent_station": null, "stop_timezone": null, "wheelchair_boarding": 1 }, "geometry": { "type": "Point", "coordinates": [ -79.344893939999309, 43.679919356353082 ] } },
{ "type": "Feature", "properties": { "stop_id": 14271, "stop_code": 14752, "stop_name": "Royal York Station", "stop_desc": null, "stop_lat": 43.648282, "stop_lon": -79.511038, "zone_id": null, "stop_url": null, "location_type": null, "parent_station": null, "stop_timezone": null, "wheelchair_boarding": 1 }, "geometry": { "type": "Point", "coordinates": [ -79.511038, 43.648282 ] } },
{ "type": "Feature", "properties": { "stop_id": 14274, "stop_code": 14755, "stop_name": "Runnymede Station", "stop_desc": null, "stop_lat": 43.651732, "stop_lon": -79.475954, "zone_id": null, "stop_url": null, "location_type": null, "parent_station": null, "stop_timezone": null, "wheelchair_boarding": 1 }, "geometry": { "type": "Point", "coordinates": [ -79.475954, 43.651732 ] } },
{ "type": "Feature", "properties": { "stop_id": 14281, "stop_code": 14762, "stop_name": "Scarborough Centre Station", "stop_desc": null, "stop_lat": 43.774436, "stop_lon": -79.258212, "zone_id": null, "stop_url": null, "location_type": null, "parent_station": null, "stop_timezone": null, "wheelchair_boarding": 1 }, "geometry": { "type": "Point", "coordinates": [ -79.258212, 43.774436 ] } },
{ "type": "Feature", "properties": { "stop_id": 14294, "stop_code": 14777, "stop_name": "Spadina Station", "stop_desc": null, "stop_lat": 43.667271, "stop_lon": -79.403784, "zone_id": null, "stop_url": null, "location_type": null, "parent_station": null, "stop_timezone": null, "wheelchair_boarding": 1 }, "geometry": { "type": "Point", "coordinates": [ -79.403784, 43.667271 ] } },
{ "type": "Feature", "properties": { "stop_id": 14301, "stop_code": 14784, "stop_name": "St George Station", "stop_desc": null, "stop_lat": 43.668655, "stop_lon": -79.398053, "zone_id": null, "stop_url": null, "location_type": null, "parent_station": null, "stop_timezone": null, "wheelchair_boarding": 1 }, "geometry": { "type": "Point", "coordinates": [ -79.398053, 43.668655 ] } },
{ "type": "Feature", "properties": { "stop_id": 14314, "stop_code": 14797, "stop_name": "Wellesley Station", "stop_desc": null, "stop_lat": 43.665358, "stop_lon": -79.383941, "zone_id": null, "stop_url": null, "location_type": null, "parent_station": null, "stop_timezone": null, "wheelchair_boarding": 1 }, "geometry": { "type": "Point", "coordinates": [ -79.383941, 43.665358 ] } },
{ "type": "Feature", "properties": { "stop_id": 14321, "stop_code": 14804, "stop_name": "Woodbine Station", "stop_desc": null, "stop_lat": 43.68644, "stop_lon": -79.312471, "zone_id": null, "stop_url": null, "location_type": null, "parent_station": null, "stop_timezone": null, "wheelchair_boarding": 1 }, "geometry": { "type": "Point", "coordinates": [ -79.312471, 43.68644 ] } },
{ "type": "Feature", "properties": { "stop_id": 14325, "stop_code": 14808, "stop_name": "York Mills Station", "stop_desc": null, "stop_lat": 43.74511, "stop_lon": -79.40634, "zone_id": null, "stop_url": null, "location_type": null, "parent_station": null, "stop_timezone": null, "wheelchair_boarding": 1 }, "geometry": { "type": "Point", "coordinates": [ -79.40634, 43.74511 ] } },
{ "type": "Feature", "properties": { "stop_id": 14404, "stop_code": 14111, "stop_name": "Finch Station - Southbound Platform", "stop_desc": null, "stop_lat": 43.780147, "stop_lon": -79.415692, "zone_id": null, "stop_url": null, "location_type": null, "parent_station": null, "stop_timezone": null, "wheelchair_boarding": 1 }, "geometry": { "type": "Point", "coordinates": [ -79.415870114846797, 43.781188527879117 ] } },
{ "type": "Feature", "properties": { "stop_id": 14405, "stop_code": 13789, "stop_name": "North York Centre Station - Southbound Platform", "stop_desc": null, "stop_lat": 43.767347, "stop_lon": -79.412492, "zone_id": null, "stop_url": null, "location_type": null, "parent_station": null, "stop_timezone": null, "wheelchair_boarding": 1 }, "geometry": null },
{ "type": "Feature", "properties": { "stop_id": 14408, "stop_code": 13793, "stop_name": "Lawrence Station - Southbound Platform", "stop_desc": null, "stop_lat": 43.725348, "stop_lon": -79.40229, "zone_id": null, "stop_url": null, "location_type": null, "parent_station": null, "stop_timezone": null, "wheelchair_boarding": 2 }, "geometry": { "type": "Point", "coordinates": [ -79.40229, 43.725348 ] } },
{ "type": "Feature", "properties": { "stop_id": 14412, "stop_code": 13802, "stop_name": "Summerhill Station - Southbound Platform", "stop_desc": null, "stop_lat": 43.682049, "stop_lon": -79.390789, "zone_id": null, "stop_url": null, "location_type": null, "parent_station": null, "stop_timezone": null, "wheelchair_boarding": 2 }, "geometry": { "type": "Point", "coordinates": [ -79.390941428879358, 43.682752368881673 ] } },
{ "type": "Feature", "properties": { "stop_id": 14423, "stop_code": 13821, "stop_name": "St Patrick Station", "stop_desc": null, "stop_lat": 43.655249, "stop_lon": -79.388388, "zone_id": null, "stop_url": null, "location_type": null, "parent_station": null, "stop_timezone": null, "wheelchair_boarding": 1 }, "geometry": { "type": "Point", "coordinates": [ -79.388388, 43.655249 ] } },
{ "type": "Feature", "properties": { "stop_id": 14425, "stop_code": 13825, "stop_name": "Museum Station - Northbound Platform", "stop_desc": null, "stop_lat": 43.667249, "stop_lon": -79.393389, "zone_id": null, "stop_url": null, "location_type": null, "parent_station": null, "stop_timezone": null, "wheelchair_boarding": 2 }, "geometry": { "type": "Point", "coordinates": [ -79.393389, 43.667249 ] } },
{ "type": "Feature", "properties": { "stop_id": 14433, "stop_code": 13837, "stop_name": "Yorkdale Station", "stop_desc": null, "stop_lat": 43.725248, "stop_lon": -79.447692, "zone_id": null, "stop_url": null, "location_type": null, "parent_station": null, "stop_timezone": null, "wheelchair_boarding": 2 }, "geometry": { "type": "Point", "coordinates": [ -79.447692, 43.725248 ] } },
{ "type": "Feature", "properties": { "stop_id": 14435, "stop_code": 14945, "stop_name": "Sheppard West Station", "stop_desc": null, "stop_lat": 43.750204, "stop_lon": -79.462781, "zone_id": null, "stop_url": null, "location_type": null, "parent_station": null, "stop_timezone": null, "wheelchair_boarding": 1 }, "geometry": { "type": "Point", "coordinates": [ -79.462781, 43.750204 ] } },
{ "type": "Feature", "properties": { "stop_id": 14437, "stop_code": 13839, "stop_name": "Wilson Station", "stop_desc": null, "stop_lat": 43.733848, "stop_lon": -79.449892, "zone_id": null, "stop_url": null, "location_type": null, "parent_station": null, "stop_timezone": null, "wheelchair_boarding": 2 }, "geometry": { "type": "Point", "coordinates": [ -79.449892, 43.733848 ] } },
{ "type": "Feature", "properties": { "stop_id": 14455, "stop_code": 13808, "stop_name": "College Station", "stop_desc": null, "stop_lat": 43.661449, "stop_lon": -79.383088, "zone_id": null, "stop_url": null, "location_type": null, "parent_station": null, "stop_timezone": null, "wheelchair_boarding": 2 }, "geometry": { "type": "Point", "coordinates": [ -79.383088, 43.661449 ] } },
{ "type": "Feature", "properties": { "stop_id": 14462, "stop_code": 13796, "stop_name": "Eglinton Station - Northbound Platform", "stop_desc": null, "stop_lat": 43.706548, "stop_lon": -79.39839, "zone_id": null, "stop_url": null, "location_type": null, "parent_station": null, "stop_timezone": null, "wheelchair_boarding": 1 }, "geometry": { "type": "Point", "coordinates": [ -79.398538148552447, 43.706127315023004 ] } },
{ "type": "Feature", "properties": { "stop_id": 14463, "stop_code": 13794, "stop_name": "Lawrence Station - Northbound Platform", "stop_desc": null, "stop_lat": 43.726548, "stop_lon": -79.40249, "zone_id": null, "stop_url": null, "location_type": null, "parent_station": null, "stop_timezone": null, "wheelchair_boarding": 2 }, "geometry": { "type": "Point", "coordinates": [ -79.40249, 43.726548 ] } },
{ "type": "Feature", "properties": { "stop_id": 14466, "stop_code": 13790, "stop_name": "North York Centre Station", "stop_desc": null, "stop_lat": 43.768547, "stop_lon": -79.412592, "zone_id": null, "stop_url": null, "location_type": null, "parent_station": null, "stop_timezone": null, "wheelchair_boarding": 1 }, "geometry": { "type": "Point", "coordinates": [ -79.412592, 43.768547 ] } },
{ "type": "Feature", "properties": { "stop_id": 14477, "stop_code": 13768, "stop_name": "Lansdowne Station", "stop_desc": null, "stop_lat": 43.659246, "stop_lon": -79.442463, "zone_id": null, "stop_url": null, "location_type": null, "parent_station": null, "stop_timezone": null, "wheelchair_boarding": 2 }, "geometry": { "type": "Point", "coordinates": [ -79.442463, 43.659246 ] } },
{ "type": "Feature", "properties": { "stop_id": 14484, "stop_code": 13757, "stop_name": "Bay Station", "stop_desc": null, "stop_lat": 43.670149, "stop_lon": -79.390089, "zone_id": null, "stop_url": null, "location_type": null, "parent_station": null, "stop_timezone": null, "wheelchair_boarding": 2 }, "geometry": { "type": "Point", "coordinates": [ -79.390089, 43.670149 ] } },
{ "type": "Feature", "properties": { "stop_id": 14489, "stop_code": 13748, "stop_name": "Chester Station", "stop_desc": null, "stop_lat": 43.678241, "stop_lon": -79.352502, "zone_id": null, "stop_url": null, "location_type": null, "parent_station": null, "stop_timezone": null, "wheelchair_boarding": 2 }, "geometry": { "type": "Point", "coordinates": [ -79.352502, 43.678241 ] } },
{ "type": "Feature", "properties": { "stop_id": 14498, "stop_code": 14947, "stop_name": "Kennedy Station", "stop_desc": null, "stop_lat": 43.732487, "stop_lon": -79.263718, "zone_id": null, "stop_url": null, "location_type": null, "parent_station": null, "stop_timezone": null, "wheelchair_boarding": 1 }, "geometry": { "type": "Point", "coordinates": [ -79.263718, 43.732487 ] } },
{ "type": "Feature", "properties": { "stop_id": 14500, "stop_code": 13731, "stop_name": "Warden Station", "stop_desc": null, "stop_lat": 43.710949, "stop_lon": -79.279085, "zone_id": null, "stop_url": null, "location_type": null, "parent_station": null, "stop_timezone": null, "wheelchair_boarding": 2 }, "geometry": { "type": "Point", "coordinates": [ -79.279085, 43.710949 ] } },
{ "type": "Feature", "properties": { "stop_id": 14505, "stop_code": 13741, "stop_name": "Greenwood Station", "stop_desc": null, "stop_lat": 43.682849, "stop_lon": -79.329987, "zone_id": null, "stop_url": null, "location_type": null, "parent_station": null, "stop_timezone": null, "wheelchair_boarding": 2 }, "geometry": { "type": "Point", "coordinates": [ -79.330233803933794, 43.682542717063001 ] } },
{ "type": "Feature", "properties": { "stop_id": 14511, "stop_code": 13754, "stop_name": "Sherbourne Station", "stop_desc": null, "stop_lat": 43.672174, "stop_lon": -79.376173, "zone_id": null, "stop_url": null, "location_type": null, "parent_station": null, "stop_timezone": null, "wheelchair_boarding": 2 }, "geometry": { "type": "Point", "coordinates": [ -79.376495878694854, 43.672224965080908 ] } },
{ "type": "Feature", "properties": { "stop_id": 14519, "stop_code": 13766, "stop_name": "Dufferin Station", "stop_desc": null, "stop_lat": 43.660549, "stop_lon": -79.43569, "zone_id": null, "stop_url": null, "location_type": null, "parent_station": null, "stop_timezone": null, "wheelchair_boarding": 1 }, "geometry": { "type": "Point", "coordinates": [ -79.43569, 43.660549 ] } },
{ "type": "Feature", "properties": { "stop_id": 14526, "stop_code": 13779, "stop_name": "Old Mill Station", "stop_desc": null, "stop_lat": 43.650048, "stop_lon": -79.494892, "zone_id": null, "stop_url": null, "location_type": null, "parent_station": null, "stop_timezone": null, "wheelchair_boarding": 2 }, "geometry": { "type": "Point", "coordinates": [ -79.494892, 43.650048 ] } },
{ "type": "Feature", "properties": { "stop_id": 14530, "stop_code": 13862, "stop_name": "Sheppard-Yonge Station - Eastbound Platform", "stop_desc": null, "stop_lat": 43.761494, "stop_lon": -79.410394, "zone_id": null, "stop_url": null, "location_type": null, "parent_station": null, "stop_timezone": null, "wheelchair_boarding": 1 }, "geometry": { "type": "Point", "coordinates": [ -79.410907391210145, 43.761457227948156 ] } },
{ "type": "Feature", "properties": { "stop_id": 14532, "stop_code": 13845, "stop_name": "Bessarion Station", "stop_desc": null, "stop_lat": 43.769202, "stop_lon": -79.376312, "zone_id": null, "stop_url": null, "location_type": null, "parent_station": null, "stop_timezone": null, "wheelchair_boarding": 1 }, "geometry": { "type": "Point", "coordinates": [ -79.376574306863859, 43.769133505778022 ] } },
{ "type": "Feature", "properties": { "stop_id": 14536, "stop_code": 13847, "stop_name": "Leslie Station - Westbound Platform", "stop_desc": null, "stop_lat": 43.771248, "stop_lon": -79.36679, "zone_id": null, "stop_url": null, "location_type": null, "parent_station": null, "stop_timezone": null, "wheelchair_boarding": 1 }, "geometry": { "type": "Point", "coordinates": [ -79.365630611513723, 43.771072885615411 ] } },
{ "type": "Feature", "properties": { "stop_id": 14617, "stop_code": 14618, "stop_name": "Bathurst Station", "stop_desc": null, "stop_lat": 43.665925, "stop_lon": -79.411029, "zone_id": null, "stop_url": null, "location_type": null, "parent_station": null, "stop_timezone": null, "wheelchair_boarding": 1 }, "geometry": { "type": "Point", "coordinates": [ -79.411029, 43.665925 ] } },
{ "type": "Feature", "properties": { "stop_id": 14620, "stop_code": 14678, "stop_name": "Eglinton West Station", "stop_desc": null, "stop_lat": 43.699706, "stop_lon": -79.436312, "zone_id": null, "stop_url": null, "location_type": null, "parent_station": null, "stop_timezone": null, "wheelchair_boarding": 1 }, "geometry": { "type": "Point", "coordinates": [ -79.436312, 43.699706 ] } },
{ "type": "Feature", "properties": { "stop_id": 14734, "stop_code": 14976, "stop_name": "Victoria Park Station", "stop_desc": null, "stop_lat": 43.694411, "stop_lon": -79.289249, "zone_id": null, "stop_url": null, "location_type": null, "parent_station": null, "stop_timezone": null, "wheelchair_boarding": 1 }, "geometry": { "type": "Point", "coordinates": [ -79.2888105494835, 43.694855346026252 ] } },
{ "type": "Feature", "properties": { "stop_id": 15699, "stop_code": 15665, "stop_name": "Downsview Park Station", "stop_desc": null, "stop_lat": 43.753311, "stop_lon": -79.478693, "zone_id": null, "stop_url": null, "location_type": null, "parent_station": null, "stop_timezone": null, "wheelchair_boarding": 1 }, "geometry": { "type": "Point", "coordinates": [ -79.478475174224428, 43.753577583433035 ] } },
{ "type": "Feature", "properties": { "stop_id": 15700, "stop_code": 15661, "stop_name": "Highway 407 Station", "stop_desc": null, "stop_lat": 43.783359, "stop_lon": -79.523454, "zone_id": null, "stop_url": null, "location_type": null, "parent_station": null, "stop_timezone": null, "wheelchair_boarding": 1 }, "geometry": { "type": "Point", "coordinates": [ -79.523454, 43.783359 ] } },
{ "type": "Feature", "properties": { "stop_id": 15702, "stop_code": 15662, "stop_name": "Vaughan Metropolitan Centre Station", "stop_desc": null, "stop_lat": 43.794021, "stop_lon": -79.527906, "zone_id": null, "stop_url": null, "location_type": null, "parent_station": null, "stop_timezone": null, "wheelchair_boarding": 1 }, "geometry": { "type": "Point", "coordinates": [ -79.527906, 43.794021 ] } },
{ "type": "Feature", "properties": { "stop_id": 23850, "stop_code": 15573, "stop_name": "Pioneer Village Station", "stop_desc": null, "stop_lat": 43.776806, "stop_lon": -79.509408, "zone_id": null, "stop_url": null, "location_type": null, "parent_station": null, "stop_timezone": null, "wheelchair_boarding": 1 }, "geometry": { "type": "Point", "coordinates": [ -79.509408, 43.776806 ] } },
{ "type": "Feature", "properties": { "stop_id": 23861, "stop_code": 15566, "stop_name": "Finch West Station", "stop_desc": null, "stop_lat": 43.765126, "stop_lon": -79.490896, "zone_id": null, "stop_url": null, "location_type": null, "parent_station": null, "stop_timezone": null, "wheelchair_boarding": 1 }, "geometry": { "type": "Point", "coordinates": [ -79.490896, 43.765126 ] } },
{ "type": "Feature", "properties": { "stop_id": 24290, "stop_code": 15889, "stop_name": "Queen's Park Station", "stop_desc": null, "stop_lat": 43.659593, "stop_lon": -79.390491, "zone_id": null, "stop_url": null, "location_type": null, "parent_station": null, "stop_timezone": null, "wheelchair_boarding": 1 }, "geometry": { "type": "Point", "coordinates": [ -79.390491, 43.659593 ] } },
{ "type": "Feature", "properties": { "stop_id": 24438, "stop_code": 16048, "stop_name": "Islington Station", "stop_desc": null, "stop_lat": 43.645156, "stop_lon": -79.523769, "zone_id": null, "stop_url": null, "location_type": null, "parent_station": null, "stop_timezone": null, "wheelchair_boarding": 1 }, "geometry": { "type": "Point", "coordinates": [ -79.523769, 43.645156 ] } },
{ "type": "Feature", "properties": { "stop_id": 24461, "stop_code": 15300, "stop_name": "Rosedale Station", "stop_desc": null, "stop_lat": 43.676639, "stop_lon": -79.388776, "zone_id": null, "stop_url": null, "location_type": null, "parent_station": null, "stop_timezone": null, "wheelchair_boarding": 1 }, "geometry": { "type": "Point", "coordinates": [ -79.388776, 43.676639 ] } },
{ "type": "Feature", "properties": { "stop_id": 24634, "stop_code": 16372, "stop_name": "St.Clair West Station", "stop_desc": null, "stop_lat": 43.683866, "stop_lon": -79.415157, "zone_id": null, "stop_url": null, "location_type": null, "parent_station": null, "stop_timezone": null, "wheelchair_boarding": 1 }, "geometry": { "type": "Point", "coordinates": [ -79.415157, 43.683866 ] } }
]
}
